{
       "teams" : [
			
            {"tid": 0, "cid": 0, "did": 0, "region": "Virginia", "name": "Colonials", "abbrev": "VA", "pop": 120, "city": "Virginia Beach", "state": "VA", "latitude": 36.853, "longitude": -75.978},
            {"tid": 1, "cid": 0, "did": 0, "region": "Virginia Tech", "name": "Navy", "abbrev": "NORF", "pop": 119, "city": "Norfolk", "state": "VA", "latitude": 36.847 , "longitude": -76.285},			
            {"tid": 2, "cid": 0, "did": 0, "region": "Maryland", "name": "Line", "abbrev": "MD", "pop": 118, "city": "Baltimore", "state": "MD", "latitude": 39.29, "longitude": -76.612},
            {"tid": 3, "cid": 0, "did": 0, "region": "Delaware", "name": "Blue Hens", "abbrev": "DE", "pop": 117, "city": "Wilmington", "state": "DE", "latitude": 39.746, "longitude": -75.547},
            {"tid": 4, "cid": 0, "did": 0, "region": "North Carolina", "name": "Tar Heels", "abbrev": "NC", "pop": 116, "city": "Charlotte", "state": "NC", "latitude": 35.227, "longitude": -80.843},
            {"tid": 5, "cid": 0, "did": 0, "region": "North Carolina State", "name": "Oaks", "abbrev": "RALE", "pop": 115, "city": "Raleigh", "state": "NC", "latitude": 35.772 , "longitude": -78.639},					
            {"tid": 6, "cid": 0, "did": 1, "region": "South Carolina", "name": "Wrens", "abbrev": "SC", "pop": 114, "city": "Columbia", "state": "SC", "latitude": 34.001 , "longitude": -81.035},
            {"tid": 7, "cid": 0, "did": 1, "region": "Florida", "name": "Suns", "abbrev": "FLOR", "pop": 113, "city": "Jacksonville", "state": "FL", "latitude": 30.332 , "longitude": -81.656},
            {"tid": 8, "cid": 0, "did": 1, "region": "New Jersey", "name": "Gardeners", "abbrev": "NJ", "pop": 112, "city": "Newark", "state": "NJ", "latitude": 40.736, "longitude": -74.172},
            {"tid": 9, "cid": 0, "did": 1, "region": "New Jersey State", "name": "1930", "abbrev": "JECI", "pop": 111, "city": "Jersey City", "state": "NJ", "latitude": 40.728 , "longitude": -74.078},					
            {"tid": 10, "cid": 0, "did": 1, "region": "New York", "name": "Emperors", "abbrev": "NY", "pop": 110, "city": "New York", "state": "NY", "latitude": 40.714 , "longitude": -74.006},
            {"tid": 11, "cid": 0, "did": 1, "region": "New York State", "name": "Kings", "abbrev": "BROO", "pop": 109, "city": "Brooklyn", "state": "NY", "latitude": 40.65 , "longitude": -73.95},		
            {"tid": 12, "cid": 2, "did": 4, "region": "Indiana", "name": "Hoosiers", "abbrev": "IND", "pop": 108, "city": "Indianapolis", "state": "IN", "latitude": 39.768, "longitude": -86.158},
            {"tid": 13, "cid": 2, "did": 4, "region": "Michigan", "name": "Wolverines", "abbrev": "MICH", "pop": 107, "city": "Detroit ", "state": "MI", "latitude": 42.331, "longitude": -83.046},
            {"tid": 14, "cid": 2, "did": 4, "region": "Illinois", "name": "Ferrets", "abbrev": "ILL", "pop": 106, "city": "Chicago", "state": "IL", "latitude": 41.85, "longitude": -87.65},
            {"tid": 15, "cid": 2, "did": 4, "region": "Ohio", "name": "Buckeyes", "abbrev": "OHIO", "pop": 105, "city": "Columbus", "state": "OH", "latitude": 39.961, "longitude": -82.999},
            {"tid": 16, "cid": 2, "did": 4, "region": "Pennsylvania State", "name": "Ruffled Grouses", "abbrev": "PSU", "pop": 104, "city": "Pittsburgh", "state": "PA", "latitude": 40.441, "longitude": -79.996},
            {"tid": 17, "cid": 2, "did": 4, "region": "Illinois State", "name": "Badgers", "abbrev": "ILLS", "pop": 103, "city": "Aurora", "state": "IL", "latitude": 41.761, "longitude": -88.32},
            {"tid": 18, "cid": 2, "did": 5, "region": "Illinois Tech", "name": "Coyotes", "abbrev": "ILLT", "pop": 102, "city": "Rockford", "state": "IL", "latitude": 42.271, "longitude": -89.094},
            {"tid": 19, "cid": 2, "did": 5, "region": "Illinois - Joliet", "name": "Speed", "abbrev": "JOLI", "pop": 101, "city": "Joliet", "state": "IL", "latitude": 41.525 , "longitude": -88.083},
            {"tid": 20, "cid": 2, "did": 5, "region": "Iowa", "name": "Hawkeyes", "abbrev": "IOWA", "pop": 100, "city": "Des Moines", "state": "IA", "latitude": 41.601, "longitude": -93.609},
            {"tid": 21, "cid": 2, "did": 5, "region": "Iowa State", "name": "Banks", "abbrev": "CERA", "pop": 99, "city": "Cedar Rapids", "state": "IA", "latitude": 42.008 , "longitude": -91.644},			
            {"tid": 22, "cid": 2, "did": 5, "region": "Maryland State", "name": "Regulars", "abbrev": "MDS", "pop": 98, "city": "Columbia", "state": "MD", "latitude": 39.24, "longitude": -76.839},
            {"tid": 23, "cid": 2, "did": 5, "region": "Michigan State", "name": "Lakers", "abbrev": "MICS", "pop": 97, "city": "Grand Rapids ", "state": "MI", "latitude": 42.963, "longitude": -85.668},			
            {"tid": 24, "cid": 4, "did": 8, "region": "South Carolina State", "name": "Palmettos", "abbrev": "SCAS", "pop": 96, "city": "Charleston", "state": "SC", "latitude": 32.777 , "longitude": -79.931},
            {"tid": 25, "cid": 4, "did": 8, "region": "South Carolina Tech", "name": "Retail", "abbrev": "NOCH", "pop": 95, "city": "North Charleston", "state": "SC", "latitude": 32.855 , "longitude": -79.975},					
            {"tid": 26, "cid": 4, "did": 8, "region": "Tennessee", "name": "Volunteers", "abbrev": "TENN", "pop": 94, "city": "Memphis", "state": "TN", "latitude": 35.15, "longitude": -90.049},
            {"tid": 27, "cid": 4, "did": 8, "region": "Georgia Tech", "name": "Thrashers", "abbrev": "GTEC", "pop": 93, "city": "Columbus", "state": "GA", "latitude": 32.461, "longitude": -84.988},
            {"tid": 28, "cid": 4, "did": 8, "region": "Georgia State", "name": "Hosts", "abbrev": "SAVA", "pop": 92, "city": "Savannah", "state": "GA", "latitude": 32.084, "longitude": -81.1}, 
            {"tid": 29, "cid": 4, "did": 8, "region": "Alabama", "name": "Yellowhammers", "abbrev": "ALA", "pop": 91, "city": "Birmingham", "state": "AL", "latitude": 33.521, "longitude": -86.802},
            {"tid": 30, "cid": 4, "did": 9, "region": "Alabama Tech", "name": "MoonPies", "abbrev": "MOBI", "pop": 90, "city": "Mobile", "state": "AL", "latitude": 30.694, "longitude": -88.043}, 			
            {"tid": 31, "cid": 4, "did": 9, "region": "Arkansas", "name": "Naturals", "abbrev": "ARK", "pop": 89, "city": "Little Rock", "state": "AR", "latitude": 34.746, "longitude": -92.29},
            {"tid": 32, "cid": 4, "did": 9, "region": "Alabama State", "name": "Cavalry", "abbrev": "ASU", "pop": 88, "city": "Montgomery", "state": "AL", "latitude": 32.367, "longitude": -86.3},
            {"tid": 33, "cid": 4, "did": 9, "region": "Louisiana", "name": "Pelicans", "abbrev": "LOU", "pop": 87, "city": "New Orleans", "state": "LA", "latitude": 29.955, "longitude": -90.075},
            {"tid": 34, "cid": 4, "did": 9, "region": "Louisiana State", "name": "Plunge Divers", "abbrev": "LAS", "pop": 86, "city": "Baton Rouge", "state": "LA", "latitude": 30.451, "longitude": -91.155},
            {"tid": 35, "cid": 4, "did": 9, "region": "Louisiana Tech", "name": "Melting Pot", "abbrev": "SHRE", "pop": 85, "city": "Shreveport", "state": "LA", "latitude": 32.525, "longitude": -93.75}, 			
            {"tid": 36, "cid": 6, "did": 12, "region": "Washington", "name": "Evergreens", "abbrev": "WASH", "pop": 84, "city": "Seattle", "state": "WA", "latitude": 47.606, "longitude": -122.332},
            {"tid": 37, "cid": 6, "did": 12, "region": "Washington State", "name": "Goldfinches", "abbrev": "WASS", "pop": 83, "city": "Spokane", "state": "WA", "latitude": 47.66, "longitude": -117.429},
            {"tid": 38, "cid": 6, "did": 12, "region": "Washington Tech", "name": "Rain", "abbrev": "TACO", "pop": 82, "city": "Tacoma", "state": "WA", "latitude": 47.253, "longitude": -122.444},			
            {"tid": 39, "cid": 6, "did": 12, "region": "Oregon", "name": "Beavers", "abbrev": "ORE", "pop": 81, "city": "Portland", "state": "OR", "latitude": 45.523, "longitude": -122.676},
            {"tid": 40, "cid": 6, "did": 12, "region": "Oregon State", "name": "Meadowlarks", "abbrev": "ORES", "pop": 80, "city": "Eugene", "state": "OR", "latitude": 44.052, "longitude": -123.087},
            {"tid": 41, "cid": 6, "did": 12, "region": "Oregon Tech", "name": "Reps", "abbrev": "SALE", "pop": 79, "city": "Salem", "state": "OR", "latitude": 44.943, "longitude": -123.035}, 			
            {"tid": 42, "cid": 6, "did": 13, "region": "California", "name": "Gold", "abbrev": "CAL", "pop": 78, "city": "Los Angeles", "state": "CA", "latitude": 34.052, "longitude": -118.244},
            {"tid": 43, "cid": 6, "did": 13, "region": "California State", "name": "Poppies ", "abbrev": "CALS", "pop": 77, "city": "San Diego", "state": "CA", "latitude": 32.715, "longitude": -117.157},
            {"tid": 44, "cid": 6, "did": 13, "region": "California Tech", "name": "Miners", "abbrev": "CALT", "pop": 76, "city": "San Jose", "state": "CA", "latitude": 37.339, "longitude": -121.895},
            {"tid": 45, "cid": 6, "did": 13, "region": "California - San Francisco", "name": "Gate", "abbrev": "SANF", "pop": 75, "city": "San Francisco", "state": "CA", "latitude": 37.775, "longitude": -122.419},
            {"tid": 46, "cid": 6, "did": 13, "region": "Nevada", "name": "Silver", "abbrev": "NEV", "pop": 74, "city": "Las Vegas", "state": "NV", "latitude": 36.175, "longitude": -115.137},
            {"tid": 47, "cid": 6, "did": 13, "region": "Arizona", "name": "Copper", "abbrev": "ARIZ", "pop": 73, "city": "Phoenix", "state": "AZ", "latitude": 33.448, "longitude": -112.074},
            {"tid": 48, "cid": 8, "did": 16, "region": "Kansas", "name": "Sunflowers", "abbrev": "KANS", "pop": 72, "city": "Wichita", "state": "KS", "latitude": 37.692, "longitude": -97.338},
            {"tid": 49, "cid": 8, "did": 16, "region": "Oklahoma", "name": "Sooners", "abbrev": "OKL", "pop": 71, "city": "Oklahoma City", "state": "OK", "latitude": 35.468, "longitude": -97.516},
            {"tid": 50, "cid": 8, "did": 16, "region": "Minnesota State", "name": "Loons", "abbrev": "MINS", "pop": 70, "city": "Saint Paul", "state": "MN", "latitude": 44.944, "longitude": -93.093},
            {"tid": 51, "cid": 8, "did": 16, "region": "Minnesota Tech", "name": "Zumbro", "abbrev": "ROMN", "pop": 69, "city": "Rochester", "state": "MN", "latitude": 44.022, "longitude":  -92.47},					
            {"tid": 52, "cid": 8, "did": 16, "region": "Kansas State", "name": "Meadowlarks", "abbrev": "KST", "pop": 68, "city": "Overland Park", "state": "KS", "latitude": 38.982, "longitude": -94.671},
            {"tid": 53, "cid": 8, "did": 16, "region": "Kansas Tech", "name": "Braves of the King", "abbrev": "KACI", "pop": 67, "city": "Kansas City", "state": "KS", "latitude": 39.114 , "longitude": -94.627},			
            {"tid": 54, "cid": 8, "did": 17, "region": "Oklahoma State", "name": "Scissor Tails", "abbrev": "OSU", "pop": 66, "city": "Tulsa", "state": "OK", "latitude": 36.154, "longitude": -95.993},
            {"tid": 55, "cid": 8, "did": 17, "region": "Oklahoma Tech", "name": "Land Run", "abbrev": "NORM", "pop": 65, "city": "Norman", "state": "OK", "latitude": 35.223 , "longitude": -97.439},					
            {"tid": 56, "cid": 8, "did": 17, "region": "Wyoming", "name": "Jurors", "abbrev": "WYOM", "pop": 64, "city": "Cheyenne", "state": "WY", "latitude": 41.14, "longitude":  -104.82},
            {"tid": 57, "cid": 8, "did": 17, "region": "Montana", "name": "Treasures", "abbrev": "MONT", "pop": 63, "city": "Billings", "state": "MT", "latitude": 45.783, "longitude": -108.501},
            {"tid": 58, "cid": 8, "did": 17, "region": "North Dakota", "name": "Roughriders", "abbrev": "NDU", "pop": 62, "city": "Fargo", "state": "ND", "latitude": 46.877, "longitude": -96.79},
            {"tid": 59, "cid": 8, "did": 17, "region": "South Dakota", "name": "Rush", "abbrev": "SDU", "pop": 61, "city": "Sioux Falls", "state": "SD", "latitude": 43.55, "longitude": -96.7},
            {"tid": 60, "cid": 9, "did": 18, "region": "Nebraska State", "name": "Golden Knights", "abbrev": "NEST", "pop": 60, "city": "Lincoln", "state": "NE", "latitude": 40.8, "longitude": -96.667},
            {"tid": 61, "cid": 9, "did": 18, "region": "Nebraska Tech", "name": "Trading Post", "abbrev": "BENE", "pop": 59, "city": "Bellevue", "state": "NE", "latitude": 41.137 , "longitude":  -95.891},						
            {"tid": 62, "cid": 9, "did": 18, "region": "Texas", "name": "Rangers", "abbrev": "TEX", "pop": 58, "city": "Houston", "state": "TX", "latitude": 29.763, "longitude": -95.363},
            {"tid": 63, "cid": 9, "did": 18, "region": "Texas Tech", "name": "Loners", "abbrev": "TEXT", "pop": 57, "city": "Dallas", "state": "TX", "latitude": 32.783, "longitude": -96.807},
            {"tid": 64, "cid": 9, "did": 18, "region": "Texas - Austin", "name": "Pioneers", "abbrev": "AUST", "pop": 56, "city": "Austin", "state": "TX", "latitude": 30.267 , "longitude": -97.743},		
            {"tid": 65, "cid": 9, "did": 18, "region": "Missouri", "name": "Show", "abbrev": "MISS", "pop": 55, "city": "Kansas City", "state": "MO", "latitude": 39.1, "longitude": -94.579},
            {"tid": 66, "cid": 9, "did": 19, "region": "Missouri State", "name": "Me", "abbrev": "MIST", "pop": 54, "city": "St Louis", "state": "MO", "latitude": 38.627, "longitude": -90.198},
            {"tid": 67, "cid": 9, "did": 19, "region": "Missouri Tech", "name": "Royalty", "abbrev": "SPMO", "pop": 53, "city": "Springfield", "state": "MO", "latitude": 37.215 , "longitude":  -93.298},						
            {"tid": 68, "cid": 9, "did": 19, "region": "New Mexico", "name": "Magic", "abbrev": "NM", "pop": 52, "city": "Albuquerque", "state": "NM", "latitude": 35.084, "longitude": -106.651},
            {"tid": 69, "cid": 9, "did": 19, "region": "New Mexico State", "name": "Crosses", "abbrev": "LASC", "pop": 51, "city": "Las Cruces", "state": "NM", "latitude": 32.312, "longitude": -106.778},			
            {"tid": 70, "cid": 9, "did": 19, "region": "Colorado State", "name": "Buntings", "abbrev": "CST", "pop": 50, "city": "Colorado Springs", "state": "CO", "latitude": 38.834, "longitude": -104.821}, 						
            {"tid": 71, "cid": 9, "did": 19, "region": "Colorado Tech", "name": "Flights", "abbrev": "OXNA", "pop": 49, "city": "Oxnard", "state": "CO", "latitude": 34.191, "longitude": -119.182},
            {"tid": 72, "cid": 7, "did": 14, "region": "Arizona State", "name": "Canyons", "abbrev": "ARIS", "pop": 48, "city": "Tucson", "state": "AZ", "latitude": 32.222, "longitude": -110.926},
            {"tid": 73, "cid": 7, "did": 14, "region": "Arizona Tech", "name": "Apache", "abbrev": "MESA", "pop": 47, "city": "Mesa", "state": "AZ", "latitude": 33.422, "longitude": -111.823},			
            {"tid": 74, "cid": 7, "did": 14, "region": "Nevada State", "name": "Sage", "abbrev": "NEVS", "pop": 46, "city": "Henderson", "state": "NV", "latitude": 36.04, "longitude": -114.982},
            {"tid": 75, "cid": 7, "did": 14, "region": "Nevada Tech", "name": "Gamblers", "abbrev": "RENO", "pop": 45, "city": "Reno", "state": "NV", "latitude": 39.53, "longitude": -119.814},			
            {"tid": 76, "cid": 7, "did": 14, "region": "Hawaii", "name": "Aloha", "abbrev": "HAWA", "pop": 44, "city": "Honolulu", "state": "HI", "latitude": 21.307, "longitude": -157.858},
            {"tid": 77, "cid": 7, "did": 14, "region": "Puerto Rico", "name": "TaÃ­no", "abbrev": "PURI", "pop": 43, "city": "San Juan", "state": "PR", "latitude": 18.466, "longitude": -66.106},
            {"tid": 78, "cid": 7, "did": 15, "region": "Alaska", "name": "Frontiersmen", "abbrev": "ALAS", "pop": 42, "city": "Anchorage", "state": "AK", "latitude": 61.218, "longitude": -149.9},
            {"tid": 79, "cid": 7, "did": 15, "region": "Utah", "name": "Bees", "abbrev": "UTAH", "pop": 41, "city": "Salt Lake City", "state": "UT", "latitude": 40.761, "longitude": -111.891},
            {"tid": 80, "cid": 7, "did": 15, "region": "Utah State", "name": "Maveriks", "abbrev": "WEVC", "pop": 40, "city": "West Valley City", "state": "UT", "latitude": 40.692, "longitude": -112.001},			
            {"tid": 81, "cid": 7, "did": 15, "region": "Colorado", "name": "Larks", "abbrev": "COLO", "pop": 39, "city": "Denver", "state": "CO", "latitude": 39.739, "longitude": -104.985},
            {"tid": 82, "cid": 7, "did": 15, "region": "Idaho", "name": "Gems", "abbrev": "IDAH", "pop": 38, "city": "Boise", "state": "ID", "latitude": 43.614, "longitude": -116.203},
            {"tid": 83, "cid": 7, "did": 15, "region": "Idaho State", "name": "Railway", "abbrev": "NAMP", "pop": 37, "city": "Nampa", "state": "ID", "latitude": 43.541, "longitude": -116.563},						
            {"tid": 84, "cid": 5, "did": 10, "region": "Arkansas State", "name": "Mockingbirds", "abbrev": "ARKS", "pop": 36, "city": "Fort Smith", "state": "AR", "latitude": 35.386, "longitude": -94.399},
            {"tid": 85, "cid": 5, "did": 10, "region": "Mississippi", "name": "Magnolias", "abbrev": "MISI", "pop": 35, "city": "Jackson", "state": "MS", "latitude": 32.299, "longitude": -90.185}, 
            {"tid": 86, "cid": 5, "did": 10, "region": "Mississippi State", "name": "Magnols", "abbrev": "MSSS", "pop": 34, "city": "West Gulfport", "state": "MS", "latitude": 30.404, "longitude": -89.094},
            {"tid": 87, "cid": 5, "did": 10, "region": "Mississippi Tech", "name": "Survivors", "abbrev": "GULF", "pop": 33, "city": "Gulfport", "state": "MS", "latitude": 30.367, "longitude": -89.093} ,			
            {"tid": 88, "cid": 5, "did": 10, "region": "Florida State", "name": "Shine", "abbrev": "FLOS", "pop": 32, "city": "Miami", "state": "FL", "latitude": 25.774, "longitude": -80.194},
            {"tid": 89, "cid": 5, "did": 10, "region": "Florida Tech", "name": "Sticks of Fire", "abbrev": "TAMP", "pop": 31, "city": "Tampa", "state": "FL", "latitude": 27.971 , "longitude": -82.465},
            {"tid": 90, "cid": 5, "did": 11, "region": "Arkansas Tech", "name": "Wild", "abbrev": "ARKT", "pop": 30, "city": "Fayetteville", "state": "AR", "latitude": 36.063, "longitude": -94.157},
            {"tid": 91, "cid": 5, "did": 11, "region": "Arkansas - Fayetteville", "name": "Big Box", "abbrev": "FAYE", "pop": 29, "city": "Fayetteville", "state": "AR", "latitude": 36.063, "longitude": -94.157}, 			
            {"tid": 92, "cid": 5, "did": 11, "region": "Tennessee State", "name": "Statesmen", "abbrev": "TENS", "pop": 28, "city": "New South Memphis", "state": "TN", "latitude": 35.087, "longitude": -90.057},
            {"tid": 93, "cid": 5, "did": 11, "region": "Tennessee Tech", "name": "Cumberland", "abbrev": "NASH", "pop": 27, "city": "Nashville", "state": "TN", "latitude": 36.166 , "longitude": -86.784},					
            {"tid": 94, "cid": 5, "did": 11, "region": "Kentucky", "name": "Cardinals", "abbrev": "KENT", "pop": 26, "city": "Lexington-Fayette", "state": "KY", "latitude": 38.05, "longitude": -84.459},
            {"tid": 95, "cid": 5, "did": 11, "region": "Texas State", "name": "Lone Stars", "abbrev": "TEXS", "pop": 25, "city": "San Antonio", "state": "TX", "latitude": 29.424, "longitude": -98.494},			
            {"tid": 96, "cid": 3, "did": 6, "region": "Michigan Tech", "name": "Army", "abbrev": "WARR", "pop": 24, "city": "Warren", "state": "MI", "latitude": 42.478 , "longitude":  -83.028},						
            {"tid": 97, "cid": 3, "did": 6, "region": "Minnesota", "name": "Stars", "abbrev": "MINN", "pop": 23, "city": "Minneapolis", "state": "MN", "latitude": 44.98, "longitude": -93.264},
            {"tid": 98, "cid": 3, "did": 6, "region": "Nebraska", "name": "Cornhuskers", "abbrev": "NEB", "pop": 22, "city": "Omaha", "state": "NE", "latitude": 41.259, "longitude": -95.938},
            {"tid": 99, "cid": 3, "did": 6, "region": "Ohio State", "name": "Cardinals", "abbrev": "OHST", "pop": 21, "city": "Cleveland ", "state": "OH", "latitude": 41.499, "longitude": -81.695},
            {"tid": 100, "cid": 3, "did": 6, "region": "Ohio Tech", "name": "Jungle", "abbrev": "CINC", "pop": 20, "city": "Cincinnati", "state": "OH", "latitude": 39.162 , "longitude": -84.457},					
            {"tid": 101, "cid": 3, "did": 6, "region": "Indiana Tech", "name": "Cardinals", "abbrev": "INDT", "pop": 19, "city": "Fort Wayne", "state": "IN", "latitude": 41.131, "longitude": -85.129},
            {"tid": 102, "cid": 3, "did": 7, "region": "Indiana State", "name": "Oxbow", "abbrev": "EVAN", "pop": 18, "city": "Evansville", "state": "IN", "latitude": 37.975 , "longitude": -87.556},
            {"tid": 103, "cid": 3, "did": 7, "region": "Wisconsin", "name": "Badgers", "abbrev": "WISC", "pop": 17, "city": "Milwaukee", "state": "WI", "latitude": 43.039, "longitude": -87.906},
            {"tid": 104, "cid": 3, "did": 7, "region": "Wisconsin State", "name": "Concerts", "abbrev": "MADI", "pop": 16, "city": "Madison", "state": "WI", "latitude": 43.073 , "longitude":  -89.401},					
			{"tid": 105, "cid": 3, "did": 7, "region": "West Virginia", "name": "Mountaineers", "abbrev": "WV", "pop": 15, "city": "Charleston", "state": "WV", "latitude": 38.35, "longitude": -81.633},
            {"tid": 106, "cid": 3, "did": 7, "region": "West Virginia State", "name": "Landing", "abbrev": "HUWV", "pop": 14, "city": "Huntington", "state": "WV", "latitude": 38.419 , "longitude": -82.445},					
            {"tid": 107, "cid": 3, "did": 7, "region": "Kentucky State", "name": "Locamotive", "abbrev": "MEAD", "pop": 13, "city": "Meads", "state": "KY", "latitude": 38.413  , "longitude": -82.709},								
            {"tid": 108, "cid": 1, "did": 2, "region": "Rhode Island", "name": "Oceans", "abbrev": "RI", "pop": 12, "city": "Providence ", "state": "RI", "latitude": 41.824, "longitude": -71.413},
            {"tid": 109, "cid": 1, "did": 2, "region": "Connecticut", "name": "Myristicas", "abbrev": "CONN", "pop": 11, "city": "Bridgeport", "state": "CT", "latitude": 41.167, "longitude":  -73.205},
            {"tid": 110, "cid": 1, "did": 2, "region": "Connecticut State", "name": "Harbor", "abbrev": "NEHA", "pop": 10, "city": "New Haven", "state": "CT", "latitude": 41.308, "longitude": -72.928},			
            {"tid": 111, "cid": 1, "did": 2, "region": "Massachusetts", "name": "Settlers ", "abbrev": "MASS", "pop": 9, "city": "Boston", "state": "MA", "latitude": 42.358, "longitude": -71.06},
            {"tid": 112, "cid": 1, "did": 2, "region": "Massachusetts State", "name": "Southie", "abbrev": "SOBO", "pop": 8, "city": "South Boston", "state": "MA", "latitude": 42.333, "longitude": -71.049},			
            {"tid": 113, "cid": 1, "did": 2, "region": "Maine", "name": "Chickadees", "abbrev": "MAIN", "pop": 7, "city": "Portland", "state": "ME", "latitude": 43.661, "longitude": -70.255},
            {"tid": 114, "cid": 1, "did": 3, "region": "Georgia", "name": "Orange", "abbrev": "GEOR", "pop": 6, "city": "Atlanta", "state": "GA", "latitude": 33.749, "longitude": -84.388},
            {"tid": 115, "cid": 1, "did": 3, "region": "New Hampshire", "name": "Granite", "abbrev": "NH", "pop": 5, "city": "Manchester ", "state": "NH", "latitude": 42.996, "longitude": -71.455},
            {"tid": 116, "cid": 1, "did": 3, "region": "Pennsylvania", "name": "Keystones", "abbrev": "PENN", "pop": 4, "city": "Philadelphia", "state": "PA", "latitude": 39.952, "longitude": -75.164},
            {"tid": 117, "cid": 1, "did": 3, "region": "Vermont", "name": "Mountaineers", "abbrev": "VT", "pop": 3, "city": "Burlington", "state": "VT", "latitude": 44.476, "longitude": -73.212},
            {"tid": 118, "cid": 1, "did": 3, "region": "Maryland Tech", "name": "Villages", "abbrev": "GERM", "pop": 2, "city": "Germantown", "state": "MD", "latitude": 39.173 , "longitude": -77.272},			
            {"tid": 119, "cid": 1, "did": 3, "region": "Pennsylvania Tech", "name": "Valley", "abbrev": "ALLE", "pop": 1, "city": "Hamilton", "state": "PA", "latitude": 40.608 , "longitude": -75.49},
			      {"tid": 120, "cid": 1, "did": 3, "region": "Northern Iowa", "name": "Panthers", "abbrev": "UNI", "pop": 1, "city": "Hamilton", "state": "PA", "latitude": 40.608 , "longitude": -75.49},
            {"tid": 121, "cid": 1, "did": 3, "region": "UT-Martin", "name": "Skyhawks", "abbrev": "UTM", "pop": 1, "city": "Hamilton", "state": "PA", "latitude": 40.608 , "longitude": -75.49}
			
        ]

}
